[
	{"input":"ai","output":[{"lat":37.8453598,"lng":-122.2684832,"id":3169064970,"name":"Aiban Market"}]},
	{"input":"ta","output":[{"lat":37.8288559,"lng":-122.2823334,"id":1467717299,"name":"Taco Bell"},{"lat":37.8700182,"lng":-122.3014171,"id":3494337507,"name":"Tacubaya"},{"lat":37.872238,"lng":-122.268943,"id":2350147008,"name":"Taiwan Restaurant Distinctive Chinese Cuisine"},{"lat":37.8672312,"lng":-122.2586919,"id":286632169,"name":"Tako Sushi"},{"lat":37.8702718,"lng":-122.2693662,"id":3520889350,"name":"Tamon Tea"},{"lat":37.872176,"lng":-122.266978,"id":2286103256,"name":"Tandoori Nite"},{"lat":37.891337,"lng":-122.28237,"id":343610938,"name":"Tangerine Food Bar"},{"lat":37.8700443,"lng":-122.2832454,"id":828420917,"name":"Taqueria Montecristo"},{"lat":37.8911843,"lng":-122.285385,"id":343610951,"name":"Taqueria Talavera"},{"lat":37.8695816,"lng":-122.2676873,"id":3385127979,"name":"Target express"},{"lat":37.876464,"lng":-122.269079,"id":314115577,"name":"Taste of the Himalayas"},{"lat":37.8902766,"lng":-122.296313,"id":343611013,"name":"Tay Tah Cafe"}]},
	{"input":"cr","output":[{"lat":37.8918057,"lng":-122.2635481,"id":2411694722,"name":"Cragmont Park"},{"lat":37.8670441,"lng":-122.2586764,"id":1419597327,"name":"Cream"},{"lat":37.872397,"lng":-122.26764,"id":2286085921,"name":"Crepes A-Go-Go"},{"lat":37.8434982,"lng":-122.2514827,"id":661740391,"name":"Crepevine"},{"lat":37.8409882,"lng":-122.223567,"id":663395554,"name":"Cresco"},{"lat":37.870094,"lng":-122.267637,"id":2706296458,"name":"Cricket"},{"lat":37.8586729,"lng":-122.2680124,"id":1977414692,"name":"Crixa Cakes"},{"lat":37.8264843,"lng":-122.210451,"id":1580633321,"name":"Crogan\u0027s"},{"lat":37.8733871,"lng":-122.2370063,"id":3257627628,"name":"Crops of the World"},{"lat":37.8487408,"lng":-122.2910019,"id":2340056955,"name":"Crossfit Oakland"},{"lat":37.8287377,"lng":-122.2565038,"id":2611322117,"name":"Crossfit Oakland Uptown"},{"lat":37.8670418,"lng":-122.2563567,"id":366352407,"name":"Crossroads"},{"lat":37.866988,"lng":-122.268029,"id":2343900343,"name":"Crossroads Trading Co."},{"lat":37.8703491,"lng":-122.2667079,"id":2501119324,"name":"Crunch"}]},
	{"input":"it","output":[{"lat":37.8271703,"lng":-122.2646783,"id":358851431,"name":"Italian Christian Apostolic Church"},{"lat":37.8235373,"lng":-122.2069013,"id":472257405,"name":"Italian Colors"},{"lat":37.8400999,"lng":-122.2871029,"id":1515933657,"name":"Italy Design"},{"lat":37.8361635,"lng":-122.262324,"id":2217659181,"name":"It\u0027s Your Move (Games)"}]}
]